[
  {
    "id": "b1",
    "name": "The Coffee Bar",
    "image_URL": "https://picsum.photos/seed/picsum/200/300",
    "location": {
      "address": "123 Brew Lane",
      "city": "Coffeeville",
      "state": "CA",
      "zip_code": "90001"
    },
    "tags": ["Cafe", "Bakery"],
    "rating": 4.5,
    "reviews": [
      {
        "id": "r1",
        "user_id": "u100",
        "text": "Great atmosphere and wonderful coffee. Highly recommend the espresso!",
        "rating": 5
      },
      {
        "id": "r2",
        "user_id": "u101",
        "text": "Love the fresh pastries every morning. A perfect spot to relax or work.",
        "rating": 4
      }
    ]
  },
  {
    "id": "b2",
    "name": "Pasta Central",
    "image_URL": "https://picsum.photos/seed/picsum/200/300",
    "location": {
      "address": "456 Noodle Street",
      "city": "Pastaville",
      "state": "NY",
      "zip_code": "10001"
    },
    "tags": ["Italian", "Dine-In"],
    "rating": 4,
    "reviews": [
      {
        "id": "r3",
        "user_id": "u102",
        "text": "The spaghetti carbonara is a must-try! Cozy ambiance and friendly staff.",
        "rating": 5
      },
      {
        "id": "r4",
        "user_id": "u103",
        "text": "Good selection of wines to complement your meal. The lasagna felt a bit too cheesy for my taste.",
        "rating": 3
      }
    ]
  },
  {
    "id": "b3",
    "name": "Pasta Central",
    "image_URL": "https://picsum.photos/seed/picsum/200/300",
    "location": {
      "address": "456 Noodle Street",
      "city": "Pastaville",
      "state": "NY",
      "zip_code": "10001"
    },
    "tags": ["Italian", "Dine-In"],
    "rating": 3.8,
    "reviews": [
      {
        "id": "r5",
        "user_id": "u104",
        "text": "The spaghetti carbonara is a must-try! Cozy ambiance and friendly staff.",
        "rating": 5
      },
      {
        "id": "r6",
        "user_id": "u105",
        "text": "Good selection of wines to complement your meal. The lasagna felt a bit too cheesy for my taste.",
        "rating": 2
      }
    ]
  },
  {
    "id": "b4",
    "name": "Pasta Central",
    "image_URL": "https://picsum.photos/seed/picsum/200/300",
    "location": {
      "address": "456 Noodle Street",
      "city": "Pastaville",
      "state": "NY",
      "zip_code": "10001"
    },
    "tags": ["Italian", "Dine-In"],
    "rating": 3,
    "reviews": [
      {
        "id": "r7",
        "user_id": "u106",
        "text": "The spaghetti carbonara is a must-try! Cozy ambiance and friendly staff.",
        "rating": 4
      },
      {
        "id": "r8",
        "user_id": "u107",
        "text": "Good selection of wines to complement your meal. The lasagna felt a bit too cheesy for my taste.",
        "rating": 2
      }
    ]
  },
  {
    "id": "b5",
    "name": "Pasta Central",
    "image_URL": "https://picsum.photos/seed/picsum/200/300",
    "location": {
      "address": "456 Noodle Street",
      "city": "Pastaville",
      "state": "NY",
      "zip_code": "10001"
    },
    "tags": ["Italian", "Dine-In"],
    "rating": 4,
    "reviews": [
      {
        "id": "r9",
        "user_id": "u108",
        "text": "The spaghetti carbonara is a must-try! Cozy ambiance and friendly staff.",
        "rating": 5
      },
      {
        "id": "r10",
        "user_id": "u109",
        "text": "Good selection of wines to complement your meal. The lasagna felt a bit too cheesy for my taste.",
        "rating": 3
      }
    ]
  },
  {
    "id": "b6",
    "name": "Pasta Central",
    "image_URL": "https://picsum.photos/seed/picsum/200/300",
    "location": {
      "address": "456 Noodle Street",
      "city": "Pastaville",
      "state": "NY",
      "zip_code": "10001"
    },
    "tags": ["Italian", "Dine-In"],
    "rating": 4,
    "reviews": [
      {
        "id": "r11",
        "user_id": "u110",
        "text": "The spaghetti carbonara is a must-try! Cozy ambiance and friendly staff.",
        "rating": 5
      },
      {
        "id": "r12",
        "user_id": "u111",
        "text": "Good selection of wines to complement your meal. The lasagna felt a bit too cheesy for my taste.",
        "rating": 3
      }
    ]
  }
]
